{"type":"FeatureCollection","crs":{"type":"name","properties":{"name":"EPSG:4326"}},"features":[{"type":"Feature","id":186,"geometry":{"type":"Point","coordinates":[-161.20281948861998,56.001900320378951]},"properties":{"OBJECTID":186,"TRIBALOFFICENAME":"Nelson Lagoon"}},{"type":"Feature","id":207,"geometry":{"type":"Point","coordinates":[-162.66312166890089,60.343099675038893]},"properties":{"OBJECTID":207,"TRIBALOFFICENAME":"Tuntutuliak"}},{"type":"Feature","id":209,"geometry":{"type":"Point","coordinates":[-148.46282347124796,61.796701836732453]},"properties":{"OBJECTID":209,"TRIBALOFFICENAME":"Chickaloon"}},{"type":"Feature","id":216,"geometry":{"type":"Point","coordinates":[-147.71642602501919,64.837801774759512]},"properties":{"OBJECTID":216,"TRIBALOFFICENAME":"Birch Creek"}},{"type":"Feature","id":98,"geometry":{"type":"Point","coordinates":[-160.78812445880433,63.87309963012676]},"properties":{"OBJECTID":98,"TRIBALOFFICENAME":"Unalakleet"}},{"type":"Feature","id":179,"geometry":{"type":"Point","coordinates":[-133.94721974872149,56.975804299410484]},"properties":{"OBJECTID":179,"TRIBALOFFICENAME":"Kake"}},{"type":"Feature","id":6,"geometry":{"type":"Point","coordinates":[-149.90032304520864,61.21810163762617]},"properties":{"OBJECTID":6,"TRIBALOFFICENAME":"Ivanof Bay Tribe"}},{"type":"Feature","id":93,"geometry":{"type":"Point","coordinates":[-162.03922398885203,63.478099462203012]},"properties":{"OBJECTID":93,"TRIBALOFFICENAME":"St. Michael IRA"}},{"type":"Feature","id":213,"geometry":{"type":"Point","coordinates":[-160.20672353559743,62.656099839982417]},"properties":{"OBJECTID":213,"TRIBALOFFICENAME":"Anvik"}},{"type":"Feature","id":79,"geometry":{"type":"Point","coordinates":[-145.30192381448612,62.301902332378745]},"properties":{"OBJECTID":79,"TRIBALOFFICENAME":"Gakona"}},{"type":"Feature","id":8,"geometry":{"type":"Point","coordinates":[-154.77612173510815,59.43940098331624]},"properties":{"OBJECTID":8,"TRIBALOFFICENAME":"Kokhanok"}},{"type":"Feature","id":200,"geometry":{"type":"Point","coordinates":[-161.21392218900158,60.912199844572356]},"properties":{"OBJECTID":200,"TRIBALOFFICENAME":"Akiak"}},{"type":"Feature","id":157,"geometry":{"type":"Point","coordinates":[-142.98562456397494,63.336702667824056]},"properties":{"OBJECTID":157,"TRIBALOFFICENAME":"Tetlin"}},{"type":"Feature","id":133,"geometry":{"type":"Point","coordinates":[-162.27312204765133,60.866899682780165]},"properties":{"OBJECTID":133,"TRIBALOFFICENAME":"Atmautluak"}},{"type":"Feature","id":176,"geometry":{"type":"Point","coordinates":[-162.96532789630052,67.571098903290903]},"properties":{"OBJECTID":176,"TRIBALOFFICENAME":"Noatak"}},{"type":"Feature","id":158,"geometry":{"type":"Point","coordinates":[-146.41862830962083,67.013901867525107]},"properties":{"OBJECTID":158,"TRIBALOFFICENAME":"Venetie IRA"}},{"type":"Feature","id":212,"geometry":{"type":"Point","coordinates":[-152.64562770821129,66.565600794347702]},"properties":{"OBJECTID":212,"TRIBALOFFICENAME":"Allakaket"}},{"type":"Feature","id":103,"geometry":{"type":"Point","coordinates":[-158.45752127218793,59.039700445612453]},"properties":{"OBJECTID":103,"TRIBALOFFICENAME":"Ekuk"}},{"type":"Feature","id":146,"geometry":{"type":"Point","coordinates":[-151.82972179326799,59.351401452824405]},"properties":{"OBJECTID":146,"TRIBALOFFICENAME":"Port Graham"}},{"type":"Feature","id":51,"geometry":{"type":"Point","coordinates":[-160.49721925815595,55.339700484263339]},"properties":{"OBJECTID":51,"TRIBALOFFICENAME":"Pauloff Harbor"}},{"type":"Feature","id":29,"geometry":{"type":"Point","coordinates":[-157.28442176782534,59.728600567894041]},"properties":{"OBJECTID":29,"TRIBALOFFICENAME":"New Koliganek"}},{"type":"Feature","id":101,"geometry":{"type":"Point","coordinates":[-158.61782139756505,59.273100400505911]},"properties":{"OBJECTID":101,"TRIBALOFFICENAME":"Aleknagik"}},{"type":"Feature","id":174,"geometry":{"type":"Point","coordinates":[-156.88112782210391,66.90720002235831]},"properties":{"OBJECTID":174,"TRIBALOFFICENAME":"Kobuk"}},{"type":"Feature","id":104,"geometry":{"type":"Point","coordinates":[-159.14561961505163,55.912800622987675]},"properties":{"OBJECTID":104,"TRIBALOFFICENAME":"Perryville"}},{"type":"Feature","id":30,"geometry":{"type":"Point","coordinates":[-157.31192159867911,59.452800587152829]},"properties":{"OBJECTID":30,"TRIBALOFFICENAME":"New Stuyahok"}},{"type":"Feature","id":59,"geometry":{"type":"Point","coordinates":[-160.27502114468669,59.079200163906236]},"properties":{"OBJECTID":59,"TRIBALOFFICENAME":"Twin Hills"}},{"type":"Feature","id":70,"geometry":{"type":"Point","coordinates":[-152.40722089116849,57.790001471320998]},"properties":{"OBJECTID":70,"TRIBALOFFICENAME":"Tangirnaq"}},{"type":"Feature","id":26,"geometry":{"type":"Point","coordinates":[-165.40642440471859,64.501098808199302]},"properties":{"OBJECTID":26,"TRIBALOFFICENAME":"Nome"}},{"type":"Feature","id":11,"geometry":{"type":"Point","coordinates":[-151.25832256719025,60.554401461169995]},"properties":{"OBJECTID":11,"TRIBALOFFICENAME":"Kenaitze"}},{"type":"Feature","id":166,"geometry":{"type":"Point","coordinates":[-153.97862070351766,57.540001250770032]},"properties":{"OBJECTID":166,"TRIBALOFFICENAME":"Larsen Bay"}},{"type":"Feature","id":194,"geometry":{"type":"Point","coordinates":[-158.4022198447478,56.295300696461602]},"properties":{"OBJECTID":194,"TRIBALOFFICENAME":"Chignik Bay"}},{"type":"Feature","id":95,"geometry":{"type":"Point","coordinates":[-161.15392481853075,64.333899525098133]},"properties":{"OBJECTID":95,"TRIBALOFFICENAME":"Shaktoolik"}},{"type":"Feature","id":3,"geometry":{"type":"Point","coordinates":[-143.62393248217683,70.131902186799863]},"properties":{"OBJECTID":3,"TRIBALOFFICENAME":"Kaktovik"}},{"type":"Feature","id":86,"geometry":{"type":"Point","coordinates":[-151.73582964309966,68.143300837441274]},"properties":{"OBJECTID":86,"TRIBALOFFICENAME":"Anaktuvuk Pass"}},{"type":"Feature","id":121,"geometry":{"type":"Point","coordinates":[-161.95192197290916,60.69669975016707]},"properties":{"OBJECTID":121,"TRIBALOFFICENAME":"Napakiak"}},{"type":"Feature","id":202,"geometry":{"type":"Point","coordinates":[-163.72942271688967,62.085599330427158]},"properties":{"OBJECTID":202,"TRIBALOFFICENAME":"Asa'carsarmiut"}},{"type":"Feature","id":123,"geometry":{"type":"Point","coordinates":[-164.72392151125524,60.479399343642172]},"properties":{"OBJECTID":123,"TRIBALOFFICENAME":"Nightmute"}},{"type":"Feature","id":130,"geometry":{"type":"Point","coordinates":[-161.43582210160039,60.812199818889539]},"properties":{"OBJECTID":130,"TRIBALOFFICENAME":"Kwethluk"}},{"type":"Feature","id":220,"geometry":{"type":"Point","coordinates":[-156.92752558143169,64.733300200046784]},"properties":{"OBJECTID":220,"TRIBALOFFICENAME":"Galena"}},{"type":"Feature","id":226,"geometry":{"type":"Point","coordinates":[-134.41972048982851,58.301904211042938]},"properties":{"OBJECTID":226,"TRIBALOFFICENAME":"Douglas"}},{"type":"Feature","id":34,"geometry":{"type":"Point","coordinates":[-149.90032304520864,61.21810163762617]},"properties":{"OBJECTID":34,"TRIBALOFFICENAME":"Portage Creek"}},{"type":"Feature","id":108,"geometry":{"type":"Point","coordinates":[-154.90612192404356,59.754700939166305]},"properties":{"OBJECTID":108,"TRIBALOFFICENAME":"Iliamna"}},{"type":"Feature","id":74,"geometry":{"type":"Point","coordinates":[-139.7273216647846,59.547003357514235]},"properties":{"OBJECTID":74,"TRIBALOFFICENAME":"Yakutat"}},{"type":"Feature","id":154,"geometry":{"type":"Point","coordinates":[-149.09082719451874,66.006401459901767]},"properties":{"OBJECTID":154,"TRIBALOFFICENAME":"Stevens Village"}},{"type":"Feature","id":224,"geometry":{"type":"Point","coordinates":[-135.4450211252265,59.23580403622212]},"properties":{"OBJECTID":224,"TRIBALOFFICENAME":"Chilkoot"}},{"type":"Feature","id":206,"geometry":{"type":"Point","coordinates":[-166.09672201403831,61.531099019446266]},"properties":{"OBJECTID":206,"TRIBALOFFICENAME":"Hooper Bay"}},{"type":"Feature","id":42,"geometry":{"type":"Point","coordinates":[-150.63392615507041,65.001101259182036]},"properties":{"OBJECTID":42,"TRIBALOFFICENAME":"Manley Hot Springs"}},{"type":"Feature","id":90,"geometry":{"type":"Point","coordinates":[-171.74112270283646,63.779697885702596]},"properties":{"OBJECTID":90,"TRIBALOFFICENAME":"Gambell"}},{"type":"Feature","id":129,"geometry":{"type":"Point","coordinates":[-165.09392154508038,60.612499273007494]},"properties":{"OBJECTID":129,"TRIBALOFFICENAME":"Tununak"}},{"type":"Feature","id":165,"geometry":{"type":"Point","coordinates":[-154.45562070228834,57.571901176149424]},"properties":{"OBJECTID":165,"TRIBALOFFICENAME":"Karluk"}},{"type":"Feature","id":115,"geometry":{"type":"Point","coordinates":[-162.89032140448234,59.959899678801875]},"properties":{"OBJECTID":115,"TRIBALOFFICENAME":"Kongiganak"}},{"type":"Feature","id":69,"geometry":{"type":"Point","coordinates":[-152.40722089116849,57.790001471320998]},"properties":{"OBJECTID":69,"TRIBALOFFICENAME":"Sun'aq"}},{"type":"Feature","id":64,"geometry":{"type":"Point","coordinates":[-151.71142184670137,59.438101465368597]},"properties":{"OBJECTID":64,"TRIBALOFFICENAME":"Seldovia"}},{"type":"Feature","id":33,"geometry":{"type":"Point","coordinates":[-154.10612198089743,59.787201062532617]},"properties":{"OBJECTID":33,"TRIBALOFFICENAME":"Pedro Bay"}},{"type":"Feature","id":155,"geometry":{"type":"Point","coordinates":[-143.34642462198113,63.385302604763282]},"properties":{"OBJECTID":155,"TRIBALOFFICENAME":"Tanacross"}},{"type":"Feature","id":52,"geometry":{"type":"Point","coordinates":[-160.49721925815595,55.339700484263339]},"properties":{"OBJECTID":52,"TRIBALOFFICENAME":"Qagan Tayagungin"}},{"type":"Feature","id":110,"geometry":{"type":"Point","coordinates":[-162.02442165908838,60.218899785639678]},"properties":{"OBJECTID":110,"TRIBALOFFICENAME":"Eek"}},{"type":"Feature","id":140,"geometry":{"type":"Point","coordinates":[-162.08112275937509,61.877799612976155]},"properties":{"OBJECTID":140,"TRIBALOFFICENAME":"Ohogamuit"}},{"type":"Feature","id":35,"geometry":{"type":"Point","coordinates":[-164.64192181581322,60.942499307320659]},"properties":{"OBJECTID":35,"TRIBALOFFICENAME":"Newtok"}},{"type":"Feature","id":210,"geometry":{"type":"Point","coordinates":[-149.36222322049545,61.458101710480371]},"properties":{"OBJECTID":210,"TRIBALOFFICENAME":"Eklutna"}},{"type":"Feature","id":215,"geometry":{"type":"Point","coordinates":[-147.39642758041734,66.359401735639977]},"properties":{"OBJECTID":215,"TRIBALOFFICENAME":"Beaver"}},{"type":"Feature","id":137,"geometry":{"type":"Point","coordinates":[-160.31162270398679,61.537899927552999]},"properties":{"OBJECTID":137,"TRIBALOFFICENAME":"Kalskag"}},{"type":"Feature","id":99,"geometry":{"type":"Point","coordinates":[-168.08752497658332,65.609198250598396]},"properties":{"OBJECTID":99,"TRIBALOFFICENAME":"Wales"}},{"type":"Feature","id":1,"geometry":{"type":"Point","coordinates":[-156.78863409314536,71.290599663931815]},"properties":{"OBJECTID":1,"TRIBALOFFICENAME":"Arctic Slope"}},{"type":"Feature","id":65,"geometry":{"type":"Point","coordinates":[-159.56192361788166,62.682199941982688]},"properties":{"OBJECTID":65,"TRIBALOFFICENAME":"Shageluk"}},{"type":"Feature","id":219,"geometry":{"type":"Point","coordinates":[-151.51612815347798,66.918900967357587]},"properties":{"OBJECTID":219,"TRIBALOFFICENAME":"Evansville"}},{"type":"Feature","id":92,"geometry":{"type":"Point","coordinates":[-166.36082494863476,65.263598570826474]},"properties":{"OBJECTID":92,"TRIBALOFFICENAME":"Mary's Igloo"}},{"type":"Feature","id":20,"geometry":{"type":"Point","coordinates":[-132.82671880676142,55.208104474889566]},"properties":{"OBJECTID":20,"TRIBALOFFICENAME":"Hydaburg"}},{"type":"Feature","id":125,"geometry":{"type":"Point","coordinates":[-162.45942204518002,60.89689965096624]},"properties":{"OBJECTID":125,"TRIBALOFFICENAME":"Nunapitchuk"}},{"type":"Feature","id":31,"geometry":{"type":"Point","coordinates":[-154.89722190141049,59.720000942621041]},"properties":{"OBJECTID":31,"TRIBALOFFICENAME":"Newhalen"}},{"type":"Feature","id":106,"geometry":{"type":"Point","coordinates":[-158.62692014316781,56.949200605334553]},"properties":{"OBJECTID":106,"TRIBALOFFICENAME":"Port Heiden"}},{"type":"Feature","id":197,"geometry":{"type":"Point","coordinates":[-157.3758208850895,58.215600682302458]},"properties":{"OBJECTID":197,"TRIBALOFFICENAME":"Egegik"}},{"type":"Feature","id":45,"geometry":{"type":"Point","coordinates":[-154.37502425589639,63.013300769900468]},"properties":{"OBJECTID":45,"TRIBALOFFICENAME":"Nikolai"}},{"type":"Feature","id":217,"geometry":{"type":"Point","coordinates":[-143.7222278199437,66.654402368407005]},"properties":{"OBJECTID":217,"TRIBALOFFICENAME":"Chalkyitsik"}},{"type":"Feature","id":161,"geometry":{"type":"Point","coordinates":[-158.7219250618102,64.3271999321923]},"properties":{"OBJECTID":161,"TRIBALOFFICENAME":"Kaltag"}},{"type":"Feature","id":152,"geometry":{"type":"Point","coordinates":[-149.33692632287472,65.153301473963737]},"properties":{"OBJECTID":152,"TRIBALOFFICENAME":"Minto"}},{"type":"Feature","id":195,"geometry":{"type":"Point","coordinates":[-158.7625198015314,56.255600647234267]},"properties":{"OBJECTID":195,"TRIBALOFFICENAME":"Chignik Lake"}},{"type":"Feature","id":135,"geometry":{"type":"Point","coordinates":[-164.26582136760723,60.159999447974734]},"properties":{"OBJECTID":135,"TRIBALOFFICENAME":"Chefornak"}},{"type":"Feature","id":144,"geometry":{"type":"Point","coordinates":[-145.75252256715669,60.542402350767823]},"properties":{"OBJECTID":144,"TRIBALOFFICENAME":"Eyak"}},{"type":"Feature","id":47,"geometry":{"type":"Point","coordinates":[-158.10312547457613,64.719400001275716]},"properties":{"OBJECTID":47,"TRIBALOFFICENAME":"Nulato"}},{"type":"Feature","id":18,"geometry":{"type":"Point","coordinates":[-154.17032039254033,56.94560126633916]},"properties":{"OBJECTID":18,"TRIBALOFFICENAME":"Kaguyuk"}},{"type":"Feature","id":114,"geometry":{"type":"Point","coordinates":[-164.08332125481212,59.940199498778284]},"properties":{"OBJECTID":114,"TRIBALOFFICENAME":"Kipnuk"}},{"type":"Feature","id":214,"geometry":{"type":"Point","coordinates":[-145.537829660949,68.126901957197376]},"properties":{"OBJECTID":214,"TRIBALOFFICENAME":"Arctic Village"}},{"type":"Feature","id":100,"geometry":{"type":"Point","coordinates":[-163.40562485000459,64.681399117885235]},"properties":{"OBJECTID":100,"TRIBALOFFICENAME":"White Mountain AK"}},{"type":"Feature","id":102,"geometry":{"type":"Point","coordinates":[-158.53571984428245,56.309200675552894]},"properties":{"OBJECTID":102,"TRIBALOFFICENAME":"Chignik Lagoon"}},{"type":"Feature","id":184,"geometry":{"type":"Point","coordinates":[-162.31031897937257,55.061700258450593]},"properties":{"OBJECTID":184,"TRIBALOFFICENAME":"Belkofski"}},{"type":"Feature","id":77,"geometry":{"type":"Point","coordinates":[-148.95082472725616,63.3917016547448]},"properties":{"OBJECTID":77,"TRIBALOFFICENAME":"Cantwell"}},{"type":"Feature","id":7,"geometry":{"type":"Point","coordinates":[-156.66142119566575,58.688300751374285]},"properties":{"OBJECTID":7,"TRIBALOFFICENAME":"King Salmon"}},{"type":"Feature","id":68,"geometry":{"type":"Point","coordinates":[-146.41862830962083,67.013901867525107]},"properties":{"OBJECTID":68,"TRIBALOFFICENAME":"Venetie"}},{"type":"Feature","id":196,"geometry":{"type":"Point","coordinates":[-158.45752127218793,59.039700445612453]},"properties":{"OBJECTID":196,"TRIBALOFFICENAME":"Curyung"}},{"type":"Feature","id":12,"geometry":{"type":"Point","coordinates":[-149.43942330779399,61.581401689119922]},"properties":{"OBJECTID":12,"TRIBALOFFICENAME":"Knik"}},{"type":"Feature","id":208,"geometry":{"type":"Point","coordinates":[-163.16582276268011,62.053099423324461]},"properties":{"OBJECTID":208,"TRIBALOFFICENAME":"Andreafski"}},{"type":"Feature","id":204,"geometry":{"type":"Point","coordinates":[-164.55452311724994,62.775599128009006]},"properties":{"OBJECTID":204,"TRIBALOFFICENAME":"Chuloonawick"}},{"type":"Feature","id":21,"geometry":{"type":"Point","coordinates":[-131.64611873236521,55.342204641313536]},"properties":{"OBJECTID":21,"TRIBALOFFICENAME":"Ketchikan"}},{"type":"Feature","id":9,"geometry":{"type":"Point","coordinates":[-161.32032277892151,61.784999743443656]},"properties":{"OBJECTID":9,"TRIBALOFFICENAME":"Iqurmuit"}},{"type":"Feature","id":32,"geometry":{"type":"Point","coordinates":[-154.84582206359931,59.973600931317741]},"properties":{"OBJECTID":32,"TRIBALOFFICENAME":"Nondalton"}},{"type":"Feature","id":97,"geometry":{"type":"Point","coordinates":[-166.36082494863476,65.263598570826474]},"properties":{"OBJECTID":97,"TRIBALOFFICENAME":"Teller"}},{"type":"Feature","id":119,"geometry":{"type":"Point","coordinates":[-166.27042123750542,60.372199120545318]},"properties":{"OBJECTID":119,"TRIBALOFFICENAME":"Mekoryuk"}},{"type":"Feature","id":199,"geometry":{"type":"Point","coordinates":[-161.4314221661387,60.909399810797524]},"properties":{"OBJECTID":199,"TRIBALOFFICENAME":"Akiachak"}},{"type":"Feature","id":62,"geometry":{"type":"Point","coordinates":[-164.72392151125524,60.479399343642172]},"properties":{"OBJECTID":62,"TRIBALOFFICENAME":"Umkumiut"}},{"type":"Feature","id":67,"geometry":{"type":"Point","coordinates":[-154.37502425589639,63.013300769900468]},"properties":{"OBJECTID":67,"TRIBALOFFICENAME":"Telida"}},{"type":"Feature","id":150,"geometry":{"type":"Point","coordinates":[-141.20002576282599,64.788102903224697]},"properties":{"OBJECTID":150,"TRIBALOFFICENAME":"Eagle"}},{"type":"Feature","id":10,"geometry":{"type":"Point","coordinates":[-162.51812204053797,60.895599642281915]},"properties":{"OBJECTID":10,"TRIBALOFFICENAME":"Kasigluk"}},{"type":"Feature","id":84,"geometry":{"type":"Point","coordinates":[-166.80812819994125,68.347798164602878]},"properties":{"OBJECTID":84,"TRIBALOFFICENAME":"Point Hope IRA"}},{"type":"Feature","id":139,"geometry":{"type":"Point","coordinates":[-160.35812268264502,61.512199922441411]},"properties":{"OBJECTID":139,"TRIBALOFFICENAME":"Lower Kalskag"}},{"type":"Feature","id":17,"geometry":{"type":"Point","coordinates":[-157.70082565929295,64.880300055865149]},"properties":{"OBJECTID":17,"TRIBALOFFICENAME":"Koyukuk"}},{"type":"Feature","id":56,"geometry":{"type":"Point","coordinates":[-165.40642440471859,64.501098808199302]},"properties":{"OBJECTID":56,"TRIBALOFFICENAME":"Solomon"}},{"type":"Feature","id":16,"geometry":{"type":"Point","coordinates":[-156.39972656351242,65.698600208049868]},"properties":{"OBJECTID":16,"TRIBALOFFICENAME":"Huslia"}},{"type":"Feature","id":24,"geometry":{"type":"Point","coordinates":[-155.59602413923636,62.953200572077463]},"properties":{"OBJECTID":24,"TRIBALOFFICENAME":"Lime"}},{"type":"Feature","id":189,"geometry":{"type":"Point","coordinates":[-145.30192381448612,62.301902332378745]},"properties":{"OBJECTID":189,"TRIBALOFFICENAME":"Cheesh-Na"}},{"type":"Feature","id":15,"geometry":{"type":"Point","coordinates":[-154.25562707025324,66.048900551540854]},"properties":{"OBJECTID":15,"TRIBALOFFICENAME":"Hughes"}},{"type":"Feature","id":188,"geometry":{"type":"Point","coordinates":[-160.49721925815595,55.339700484263339]},"properties":{"OBJECTID":188,"TRIBALOFFICENAME":"Unga"}},{"type":"Feature","id":60,"geometry":{"type":"Point","coordinates":[-149.90032304520864,61.21810163762617]},"properties":{"OBJECTID":60,"TRIBALOFFICENAME":"Ugashik"}},{"type":"Feature","id":145,"geometry":{"type":"Point","coordinates":[-151.9208217937495,59.356401438032961]},"properties":{"OBJECTID":145,"TRIBALOFFICENAME":"Nanwalek"}},{"type":"Feature","id":147,"geometry":{"type":"Point","coordinates":[-146.67742280107893,60.86710218403676]},"properties":{"OBJECTID":147,"TRIBALOFFICENAME":"Tatitlek"}},{"type":"Feature","id":120,"geometry":{"type":"Point","coordinates":[-161.75582205556054,60.792199771214108]},"properties":{"OBJECTID":120,"TRIBALOFFICENAME":"Napaimute"}},{"type":"Feature","id":198,"geometry":{"type":"Point","coordinates":[-157.4753215241158,59.349700570650697]},"properties":{"OBJECTID":198,"TRIBALOFFICENAME":"Ekwok"}},{"type":"Feature","id":28,"geometry":{"type":"Point","coordinates":[-157.01392119539167,58.728300693993297]},"properties":{"OBJECTID":28,"TRIBALOFFICENAME":"Naknek"}},{"type":"Feature","id":4,"geometry":{"type":"Point","coordinates":[-165.4046244043206,64.5010988084925]},"properties":{"OBJECTID":4,"TRIBALOFFICENAME":"King Island"}},{"type":"Feature","id":66,"geometry":{"type":"Point","coordinates":[-156.06422413594515,62.988600490923915]},"properties":{"OBJECTID":66,"TRIBALOFFICENAME":"Takotna"}},{"type":"Feature","id":222,"geometry":{"type":"Point","coordinates":[-134.41972048982851,58.301904211042938]},"properties":{"OBJECTID":222,"TRIBALOFFICENAME":"Tlingit & Haida"}},{"type":"Feature","id":57,"geometry":{"type":"Point","coordinates":[-156.99812118996354,58.715600697637306]},"properties":{"OBJECTID":57,"TRIBALOFFICENAME":"South Naknek"}},{"type":"Feature","id":43,"geometry":{"type":"Point","coordinates":[-155.59602413923636,62.953200572077463]},"properties":{"OBJECTID":43,"TRIBALOFFICENAME":"Mcgrath"}},{"type":"Feature","id":127,"geometry":{"type":"Point","coordinates":[-163.2878227309703,62.032799406068563]},"properties":{"OBJECTID":127,"TRIBALOFFICENAME":"Pitka's Point"}},{"type":"Feature","id":38,"geometry":{"type":"Point","coordinates":[-161.7624219991377,60.706799778342479]},"properties":{"OBJECTID":38,"TRIBALOFFICENAME":"Oscarville"}},{"type":"Feature","id":37,"geometry":{"type":"Point","coordinates":[-161.75582205556054,60.792199771214108]},"properties":{"OBJECTID":37,"TRIBALOFFICENAME":"Orutsararmiut"}},{"type":"Feature","id":44,"geometry":{"type":"Point","coordinates":[-149.09312576249786,64.563901555195926]},"properties":{"OBJECTID":44,"TRIBALOFFICENAME":"Nenana"}},{"type":"Feature","id":82,"geometry":{"type":"Point","coordinates":[-156.78863409314536,71.290599663931815]},"properties":{"OBJECTID":82,"TRIBALOFFICENAME":"Barrow"}},{"type":"Feature","id":96,"geometry":{"type":"Point","coordinates":[-166.07192596404192,66.256698511589008]},"properties":{"OBJECTID":96,"TRIBALOFFICENAME":"Shishmaref IRA"}},{"type":"Feature","id":175,"geometry":{"type":"Point","coordinates":[-162.59672717871521,66.898299032171835]},"properties":{"OBJECTID":175,"TRIBALOFFICENAME":"Kotzebue"}},{"type":"Feature","id":177,"geometry":{"type":"Point","coordinates":[-160.00692717869896,66.603899506154434]},"properties":{"OBJECTID":177,"TRIBALOFFICENAME":"Selawik"}},{"type":"Feature","id":136,"geometry":{"type":"Point","coordinates":[-158.11082313621492,61.870000251159375]},"properties":{"OBJECTID":136,"TRIBALOFFICENAME":"Crooked Creek"}},{"type":"Feature","id":223,"geometry":{"type":"Point","coordinates":[-135.88442126646254,59.403903964619836]},"properties":{"OBJECTID":223,"TRIBALOFFICENAME":"Chilkat"}},{"type":"Feature","id":14,"geometry":{"type":"Point","coordinates":[-159.77142323294686,62.199399953040924]},"properties":{"OBJECTID":14,"TRIBALOFFICENAME":"Holy Cross"}},{"type":"Feature","id":143,"geometry":{"type":"Point","coordinates":[-149.90032304520864,61.21810163762617]},"properties":{"OBJECTID":143,"TRIBALOFFICENAME":"Chenega"}},{"type":"Feature","id":159,"geometry":{"type":"Point","coordinates":[-160.06472374089469,62.903599839599678]},"properties":{"OBJECTID":159,"TRIBALOFFICENAME":"Grayling"}},{"type":"Feature","id":162,"geometry":{"type":"Point","coordinates":[-152.40722089116849,57.790001471320998]},"properties":{"OBJECTID":162,"TRIBALOFFICENAME":"Afognak"}},{"type":"Feature","id":118,"geometry":{"type":"Point","coordinates":[-162.08112275937509,61.877799612976155]},"properties":{"OBJECTID":118,"TRIBALOFFICENAME":"Marshall"}},{"type":"Feature","id":22,"geometry":{"type":"Point","coordinates":[-133.09581899012136,55.552204434495003]},"properties":{"OBJECTID":22,"TRIBALOFFICENAME":"Klawock"}},{"type":"Feature","id":41,"geometry":{"type":"Point","coordinates":[-151.66892223283767,60.05140143026842]},"properties":{"OBJECTID":41,"TRIBALOFFICENAME":"Ninilchik"}},{"type":"Feature","id":50,"geometry":{"type":"Point","coordinates":[-132.95561956183224,56.812504446883302]},"properties":{"OBJECTID":50,"TRIBALOFFICENAME":"Petersburg"}},{"type":"Feature","id":172,"geometry":{"type":"Point","coordinates":[-160.43972753434295,66.970599396484374]},"properties":{"OBJECTID":172,"TRIBALOFFICENAME":"Kiana"}},{"type":"Feature","id":169,"geometry":{"type":"Point","coordinates":[-157.85142794023426,67.086099836721459]},"properties":{"OBJECTID":169,"TRIBALOFFICENAME":"Ambler"}},{"type":"Feature","id":163,"geometry":{"type":"Point","coordinates":[-154.17032039254033,56.94560126633916]},"properties":{"OBJECTID":163,"TRIBALOFFICENAME":"Akhiok"}},{"type":"Feature","id":183,"geometry":{"type":"Point","coordinates":[-174.20061640260508,52.196099077544552]},"properties":{"OBJECTID":183,"TRIBALOFFICENAME":"Atka"}},{"type":"Feature","id":203,"geometry":{"type":"Point","coordinates":[-165.58642207986105,61.527799098832439]},"properties":{"OBJECTID":203,"TRIBALOFFICENAME":"Chevak"}},{"type":"Feature","id":23,"geometry":{"type":"Point","coordinates":[-156.85892142629632,59.114200685596693]},"properties":{"OBJECTID":23,"TRIBALOFFICENAME":"Levelock"}},{"type":"Feature","id":49,"geometry":{"type":"Point","coordinates":[-161.03282731485697,66.838299306862424]},"properties":{"OBJECTID":49,"TRIBALOFFICENAME":"Noorvik"}},{"type":"Feature","id":87,"geometry":{"type":"Point","coordinates":[-166.48922499220319,65.334698541470118]},"properties":{"OBJECTID":87,"TRIBALOFFICENAME":"Brevig Mission"}},{"type":"Feature","id":178,"geometry":{"type":"Point","coordinates":[-157.13642777889035,66.888099979156124]},"properties":{"OBJECTID":178,"TRIBALOFFICENAME":"Shungnak"}},{"type":"Feature","id":128,"geometry":{"type":"Point","coordinates":[-165.58172229997402,61.842799064941282]},"properties":{"OBJECTID":128,"TRIBALOFFICENAME":"Scammon Bay"}},{"type":"Feature","id":167,"geometry":{"type":"Point","coordinates":[-152.50222095900097,57.92360144780789]},"properties":{"OBJECTID":167,"TRIBALOFFICENAME":"Ouzinkie"}},{"type":"Feature","id":109,"geometry":{"type":"Point","coordinates":[-159.24502282732891,61.571900094918128]},"properties":{"OBJECTID":109,"TRIBALOFFICENAME":"Chuathbaluk"}},{"type":"Feature","id":27,"geometry":{"type":"Point","coordinates":[-159.05832119219872,58.981400359077867]},"properties":{"OBJECTID":27,"TRIBALOFFICENAME":"Manokotak"}},{"type":"Feature","id":151,"geometry":{"type":"Point","coordinates":[-145.25132777450861,66.56730210233772]},"properties":{"OBJECTID":151,"TRIBALOFFICENAME":"Fort Yukon"}},{"type":"Feature","id":54,"geometry":{"type":"Point","coordinates":[-160.03833258374746,70.636899128652615]},"properties":{"OBJECTID":54,"TRIBALOFFICENAME":"Wainwright"}},{"type":"Feature","id":61,"geometry":{"type":"Point","coordinates":[-160.96172234149915,61.102499865882891]},"properties":{"OBJECTID":61,"TRIBALOFFICENAME":"Tuluksak"}},{"type":"Feature","id":218,"geometry":{"type":"Point","coordinates":[-144.06062693757809,65.825602354076807]},"properties":{"OBJECTID":218,"TRIBALOFFICENAME":"Circle"}},{"type":"Feature","id":75,"geometry":{"type":"Point","coordinates":[-169.5417187822259,56.599999088918992]},"properties":{"OBJECTID":75,"TRIBALOFFICENAME":"St. George"}},{"type":"Feature","id":168,"geometry":{"type":"Point","coordinates":[-152.88222091611729,57.867501393116292]},"properties":{"OBJECTID":168,"TRIBALOFFICENAME":"Port Lions"}},{"type":"Feature","id":58,"geometry":{"type":"Point","coordinates":[-160.37642112852748,59.061900150597609]},"properties":{"OBJECTID":58,"TRIBALOFFICENAME":"Togiak"}},{"type":"Feature","id":113,"geometry":{"type":"Point","coordinates":[-163.553323449537,63.0341992609046]},"properties":{"OBJECTID":113,"TRIBALOFFICENAME":"Hamilton"}},{"type":"Feature","id":141,"geometry":{"type":"Point","coordinates":[-157.31252311648819,61.761100389505202]},"properties":{"OBJECTID":141,"TRIBALOFFICENAME":"Red Devil"}},{"type":"Feature","id":112,"geometry":{"type":"Point","coordinates":[-161.57202105348907,59.128499962016861]},"properties":{"OBJECTID":112,"TRIBALOFFICENAME":"Goodnews Bay"}},{"type":"Feature","id":63,"geometry":{"type":"Point","coordinates":[-156.58812318430114,61.783100505013515]},"properties":{"OBJECTID":63,"TRIBALOFFICENAME":"Stony River"}},{"type":"Feature","id":192,"geometry":{"type":"Point","coordinates":[-163.02922477445608,64.543299193881126]},"properties":{"OBJECTID":192,"TRIBALOFFICENAME":"Chinik"}},{"type":"Feature","id":80,"geometry":{"type":"Point","coordinates":[-145.30532355345068,61.95500235000457]},"properties":{"OBJECTID":80,"TRIBALOFFICENAME":"Kluti-Kaah"}},{"type":"Feature","id":94,"geometry":{"type":"Point","coordinates":[-170.47892287984936,63.694198091234433]},"properties":{"OBJECTID":94,"TRIBALOFFICENAME":"Savoonga"}},{"type":"Feature","id":187,"geometry":{"type":"Point","coordinates":[-168.86781743089165,52.938099627932395]},"properties":{"OBJECTID":187,"TRIBALOFFICENAME":"Nikolski"}},{"type":"Feature","id":138,"geometry":{"type":"Point","coordinates":[-163.553323449537,63.0341992609046]},"properties":{"OBJECTID":138,"TRIBALOFFICENAME":"Kotlik"}},{"type":"Feature","id":89,"geometry":{"type":"Point","coordinates":[-162.26062494017341,64.617499313469281]},"properties":{"OBJECTID":89,"TRIBALOFFICENAME":"Elim IRA"}},{"type":"Feature","id":131,"geometry":{"type":"Point","coordinates":[-164.61532304451862,62.688899127570267]},"properties":{"OBJECTID":131,"TRIBALOFFICENAME":"Alakanuk"}},{"type":"Feature","id":180,"geometry":{"type":"Point","coordinates":[-132.40081890709959,55.538904534020688]},"properties":{"OBJECTID":180,"TRIBALOFFICENAME":"Kasaan"}},{"type":"Feature","id":190,"geometry":{"type":"Point","coordinates":[-145.45152374582574,62.208602311712518]},"properties":{"OBJECTID":190,"TRIBALOFFICENAME":"Gulkana"}},{"type":"Feature","id":185,"geometry":{"type":"Point","coordinates":[-163.41501878349379,54.850800127651866]},"properties":{"OBJECTID":185,"TRIBALOFFICENAME":"False Pass"}},{"type":"Feature","id":191,"geometry":{"type":"Point","coordinates":[-157.42073264373974,70.482199618148044]},"properties":{"OBJECTID":191,"TRIBALOFFICENAME":"Atqasuk"}},{"type":"Feature","id":107,"geometry":{"type":"Point","coordinates":[-158.52672115241754,58.837000453640428]},"properties":{"OBJECTID":107,"TRIBALOFFICENAME":"Clark's Point"}},{"type":"Feature","id":78,"geometry":{"type":"Point","coordinates":[-144.43692320710451,61.515802515924406]},"properties":{"OBJECTID":78,"TRIBALOFFICENAME":"Chitina"}},{"type":"Feature","id":134,"geometry":{"type":"Point","coordinates":[-163.553323449537,63.0341992609046]},"properties":{"OBJECTID":134,"TRIBALOFFICENAME":"Bill Moore's Slough"}},{"type":"Feature","id":105,"geometry":{"type":"Point","coordinates":[-157.57922052680581,57.564200707347787]},"properties":{"OBJECTID":105,"TRIBALOFFICENAME":"Pilot Point"}},{"type":"Feature","id":25,"geometry":{"type":"Point","coordinates":[-143.53132424957903,62.923702596435383]},"properties":{"OBJECTID":25,"TRIBALOFFICENAME":"Mentasta"}},{"type":"Feature","id":39,"geometry":{"type":"Point","coordinates":[-162.87502271391563,61.938899481293483]},"properties":{"OBJECTID":39,"TRIBALOFFICENAME":"Pilot Station"}},{"type":"Feature","id":72,"geometry":{"type":"Point","coordinates":[-135.31392124596533,59.458304052161111]},"properties":{"OBJECTID":72,"TRIBALOFFICENAME":"Skagway"}},{"type":"Feature","id":88,"geometry":{"type":"Point","coordinates":[-165.40642440471859,64.501098808199302]},"properties":{"OBJECTID":88,"TRIBALOFFICENAME":"Council"}},{"type":"Feature","id":85,"geometry":{"type":"Point","coordinates":[-163.05113076894486,69.757498673131138]},"properties":{"OBJECTID":85,"TRIBALOFFICENAME":"Point Lay IRA"}},{"type":"Feature","id":193,"geometry":{"type":"Point","coordinates":[-168.95192496363111,65.758198093635556]},"properties":{"OBJECTID":193,"TRIBALOFFICENAME":"Diomede"}},{"type":"Feature","id":48,"geometry":{"type":"Point","coordinates":[-150.17002666312698,65.505001304664049]},"properties":{"OBJECTID":48,"TRIBALOFFICENAME":"Rampart"}},{"type":"Feature","id":81,"geometry":{"type":"Point","coordinates":[-145.55732367594024,62.109702299813364]},"properties":{"OBJECTID":81,"TRIBALOFFICENAME":"Tazlina"}},{"type":"Feature","id":71,"geometry":{"type":"Point","coordinates":[-135.33001992348073,57.053104093333019]},"properties":{"OBJECTID":71,"TRIBALOFFICENAME":"Sitka"}},{"type":"Feature","id":53,"geometry":{"type":"Point","coordinates":[-166.53321806165476,53.884399815214906]},"properties":{"OBJECTID":53,"TRIBALOFFICENAME":"Qawalangin"}},{"type":"Feature","id":19,"geometry":{"type":"Point","coordinates":[-135.44362048608846,58.110004058679507]},"properties":{"OBJECTID":19,"TRIBALOFFICENAME":"Hoonah"}},{"type":"Feature","id":171,"geometry":{"type":"Point","coordinates":[-162.71722628293415,66.075599093412038]},"properties":{"OBJECTID":171,"TRIBALOFFICENAME":"Deering"}},{"type":"Feature","id":181,"geometry":{"type":"Point","coordinates":[-131.64611873236521,55.342204641313536]},"properties":{"OBJECTID":181,"TRIBALOFFICENAME":"Saxman"}},{"type":"Feature","id":126,"geometry":{"type":"Point","coordinates":[-166.09672201403831,61.531099019446266]},"properties":{"OBJECTID":126,"TRIBALOFFICENAME":"Paimiut"}},{"type":"Feature","id":55,"geometry":{"type":"Point","coordinates":[-162.26562394945526,63.463599427096028]},"properties":{"OBJECTID":55,"TRIBALOFFICENAME":"Stebbins"}},{"type":"Feature","id":40,"geometry":{"type":"Point","coordinates":[-161.81642096162457,59.013099936788763]},"properties":{"OBJECTID":40,"TRIBALOFFICENAME":"Platinum"}},{"type":"Feature","id":182,"geometry":{"type":"Point","coordinates":[-165.77311824613906,54.135599886750278]},"properties":{"OBJECTID":182,"TRIBALOFFICENAME":"Akutan"}},{"type":"Feature","id":225,"geometry":{"type":"Point","coordinates":[-133.14831896051032,55.476404427624693]},"properties":{"OBJECTID":225,"TRIBALOFFICENAME":"Craig"}},{"type":"Feature","id":211,"geometry":{"type":"Point","coordinates":[-152.70722769584847,66.557200783498203]},"properties":{"OBJECTID":211,"TRIBALOFFICENAME":"Alatna"}},{"type":"Feature","id":83,"geometry":{"type":"Point","coordinates":[-150.97643266403995,70.217500822558449]},"properties":{"OBJECTID":83,"TRIBALOFFICENAME":"Nuiqsut"}},{"type":"Feature","id":5,"geometry":{"type":"Point","coordinates":[-155.89472160913562,59.327800818004569]},"properties":{"OBJECTID":5,"TRIBALOFFICENAME":"Igiugig"}},{"type":"Feature","id":111,"geometry":{"type":"Point","coordinates":[-149.90032304520864,61.21810163762617]},"properties":{"OBJECTID":111,"TRIBALOFFICENAME":"Georgetown"}},{"type":"Feature","id":117,"geometry":{"type":"Point","coordinates":[-161.91582138429942,59.748899849038658]},"properties":{"OBJECTID":117,"TRIBALOFFICENAME":"Kwinhagak"}},{"type":"Feature","id":13,"geometry":{"type":"Point","coordinates":[-144.57952523282989,64.038802361265581]},"properties":{"OBJECTID":13,"TRIBALOFFICENAME":"Healy Lake"}},{"type":"Feature","id":170,"geometry":{"type":"Point","coordinates":[-161.12312638888366,65.979699373112297]},"properties":{"OBJECTID":170,"TRIBALOFFICENAME":"Buckland"}},{"type":"Feature","id":46,"geometry":{"type":"Point","coordinates":[-141.93722420453727,62.961702862000685]},"properties":{"OBJECTID":46,"TRIBALOFFICENAME":"Northway"}},{"type":"Feature","id":173,"geometry":{"type":"Point","coordinates":[-164.53332784076315,67.72689861818958]},"properties":{"OBJECTID":173,"TRIBALOFFICENAME":"Kivalina"}},{"type":"Feature","id":227,"geometry":{"type":"Point","coordinates":[-162.31031897937257,55.061700258450593]},"properties":{"OBJECTID":227,"TRIBALOFFICENAME":"Agdaagux"}},{"type":"Feature","id":142,"geometry":{"type":"Point","coordinates":[-157.16972308505959,61.702500417532278]},"properties":{"OBJECTID":142,"TRIBALOFFICENAME":"Sleetmute"}},{"type":"Feature","id":124,"geometry":{"type":"Point","coordinates":[-164.8411228979532,62.533599107425282]},"properties":{"OBJECTID":124,"TRIBALOFFICENAME":"Nunam Iqua"}},{"type":"Feature","id":201,"geometry":{"type":"Point","coordinates":[-163.16582276268011,62.053099423324461]},"properties":{"OBJECTID":201,"TRIBALOFFICENAME":"Algaaciq"}},{"type":"Feature","id":160,"geometry":{"type":"Point","coordinates":[-144.06692488293379,63.659702468184904]},"properties":{"OBJECTID":160,"TRIBALOFFICENAME":"Dot Lake"}},{"type":"Feature","id":2,"geometry":{"type":"Point","coordinates":[-153.30392055492376,57.202801377124466]},"properties":{"OBJECTID":2,"TRIBALOFFICENAME":"Alutiiq Tribe of Old Harbor"}},{"type":"Feature","id":153,"geometry":{"type":"Point","coordinates":[-155.48692569339397,64.739400444794498]},"properties":{"OBJECTID":153,"TRIBALOFFICENAME":"Ruby"}},{"type":"Feature","id":36,"geometry":{"type":"Point","coordinates":[-165.10252149236567,60.53029928046449]},"properties":{"OBJECTID":36,"TRIBALOFFICENAME":"Nunakauyarmiut"}},{"type":"Feature","id":116,"geometry":{"type":"Point","coordinates":[-163.16582132380537,59.872299645414181]},"properties":{"OBJECTID":116,"TRIBALOFFICENAME":"Kwigillingok"}},{"type":"Feature","id":164,"geometry":{"type":"Point","coordinates":[-149.43942330779399,61.581401689119922]},"properties":{"OBJECTID":164,"TRIBALOFFICENAME":"Kanatak"}},{"type":"Feature","id":148,"geometry":{"type":"Point","coordinates":[-151.13692291957094,61.068101445822435]},"properties":{"OBJECTID":148,"TRIBALOFFICENAME":"Tyonek"}},{"type":"Feature","id":91,"geometry":{"type":"Point","coordinates":[-161.15692535941687,64.931899467602904]},"properties":{"OBJECTID":91,"TRIBALOFFICENAME":"Koyuk"}},{"type":"Feature","id":221,"geometry":{"type":"Point","coordinates":[-134.58392008192772,57.503304197842454]},"properties":{"OBJECTID":221,"TRIBALOFFICENAME":"Angoon"}},{"type":"Feature","id":156,"geometry":{"type":"Point","coordinates":[-152.07892627582049,65.171900997314978]},"properties":{"OBJECTID":156,"TRIBALOFFICENAME":"Tanana"}},{"type":"Feature","id":76,"geometry":{"type":"Point","coordinates":[-170.27991890798339,57.122498922919036]},"properties":{"OBJECTID":76,"TRIBALOFFICENAME":"Saint Paul"}},{"type":"Feature","id":73,"geometry":{"type":"Point","coordinates":[-132.37671932998435,56.470804533905969]},"properties":{"OBJECTID":73,"TRIBALOFFICENAME":"Wrangell"}},{"type":"Feature","id":149,"geometry":{"type":"Point","coordinates":[-151.25832256719025,60.554401461169995]},"properties":{"OBJECTID":149,"TRIBALOFFICENAME":"Salamatoff"}},{"type":"Feature","id":122,"geometry":{"type":"Point","coordinates":[-161.7624219991377,60.706799778342479]},"properties":{"OBJECTID":122,"TRIBALOFFICENAME":"Napaskiak"}},{"type":"Feature","id":132,"geometry":{"type":"Point","coordinates":[-159.54072280744145,61.582800046661866]},"properties":{"OBJECTID":132,"TRIBALOFFICENAME":"Aniak"}},{"type":"Feature","id":205,"geometry":{"type":"Point","coordinates":[-164.55452311724994,62.775599128009006]},"properties":{"OBJECTID":205,"TRIBALOFFICENAME":"Emmonak"}}]}