{ "type" : "FeatureCollection", "features" : [ 

{ "type" : "Feature", "id" : 1, "geometry" : { "type" : "Point", "coordinates" : [ -77.017549499709, 38.8990800004426 ] }, "properties" : { "OBJECTID" : 1, "NAME" : "249th Engineer Battalion (Prime Power)", "CODE" : "249TH", "HQ_DIVISIO" : "249TH", "DISTRICT_L" : "249TH", "TIME_ZONE" : "Eastern", "STREET" : "441 G Street NW", "CITY" : "Washington", "STATE" : "DC", "ZIP" : " ", "SINGLE_ADD" : "441 G St NW, Washington, District of Columbia, 20548", "X" : -77.0175495, "Y" : 38.89908, "SE_ANNO_CAD_DATA" : "" } }, 
{ "type" : "Feature", "id" : 2, "geometry" : { "type" : "Point", "coordinates" : [ -90.8733418902154, 32.3019124796781 ] }, "properties" : { "OBJECTID" : 2, "NAME" : "ACE-IT HQ", "CODE" : "CEIT", "HQ_DIVISIO" : "Labs & Centers", "DISTRICT_L" : "CEIT", "TIME_ZONE" : "Central", "STREET" : "3909 Halls Ferry Road", "CITY" : "Vicksburg", "STATE" : "MS", "ZIP" : "39180-6199", "SINGLE_ADD" : "3909 Halls Ferry Rd, Vicksburg, Mississippi, 39180", "X" : -90.87334189, "Y" : 32.30191248, "SE_ANNO_CAD_DATA" : "" } }, 
{ "type" : "Feature", "id" : 3, "geometry" : { "type" : "Point", "coordinates" : [ -74.0616800002311, 40.7554200004336 ] }, "properties" : { "OBJECTID" : 3, "NAME" : "Afghanistan District", "CODE" : "CETAA", "HQ_DIVISIO" : "CETAD", "DISTRICT_L" : "CETAA", "TIME_ZONE" : "Afghanistan", "STREET" : "USACE - Afghanistan District", "CITY" : "Bagram Air Base", "STATE" : "APO", "ZIP" : "APO-AE 09354", "SINGLE_ADD" : "Apo, New Jersey, 09354", "X" : -74.06168, "Y" : 40.75542, "SE_ANNO_CAD_DATA" : "" } }, 
{ "type" : "Feature", "id" : 4, "geometry" : { "type" : "Point", "coordinates" : [ -149.848942499696, 61.2299145800947 ] }, "properties" : { "OBJECTID" : 4, "NAME" : "Alaska District Office", "CODE" : "CEPOA", "HQ_DIVISIO" : "CEPOD", "DISTRICT_L" : "CEPOA", "TIME_ZONE" : "Alaska", "STREET" : "2204 3rd St", "CITY" : "JBER-E", "STATE" : "AK", "ZIP" : "99506", "SINGLE_ADD" : "2204 3rd St, Jber, Alaska, 99506", "X" : -149.8489425, "Y" : 61.22991458, "SE_ANNO_CAD_DATA" : "" } }, 
{ "type" : "Feature", "id" : 5, "geometry" : { "type" : "Point", "coordinates" : [ -106.592872799939, 35.1522651197404 ] }, "properties" : { "OBJECTID" : 5, "NAME" : "Albuquerque District Office", "CODE" : "CESPA", "HQ_DIVISIO" : "CESPD", "DISTRICT_L" : "CESPA", "TIME_ZONE" : "Mountain", "STREET" : "6200 Jefferson Street", "CITY" : "Albuquerque", "STATE" : "NM", "ZIP" : "87109", "SINGLE_ADD" : "6200 Jefferson St NE, Albuquerque, New Mexico, 87109", "X" : -106.5928728, "Y" : 35.15226512, "SE_ANNO_CAD_DATA" : "" } }, 
{ "type" : "Feature", "id" : 6, "geometry" : { "type" : "Point", "coordinates" : [ -77.1429847200681, 38.7484621098394 ] }, "properties" : { "OBJECTID" : 6, "NAME" : "Army Geospatial Center", "CODE" : "CEAGC", "HQ_DIVISIO" : "HQUSACE", "DISTRICT_L" : "CEAGC", "TIME_ZONE" : "Eastern", "STREET" : "7701 Telegraph Road", "CITY" : "Alexandria", "STATE" : "VA", "ZIP" : "22315", "SINGLE_ADD" : "7701 Telegraph Rd, Alexandria, Virginia, 22315", "X" : -77.14298472, "Y" : 38.74846211, "SE_ANNO_CAD_DATA" : "" } }, 
{ "type" : "Feature", "id" : 7, "geometry" : { "type" : "Point", "coordinates" : [ -76.6164235798836, 39.2893863098312 ] }, "properties" : { "OBJECTID" : 7, "NAME" : "Baltimore District Office", "CODE" : "CENAB", "HQ_DIVISIO" : "CENAD", "DISTRICT_L" : "CENAB", "TIME_ZONE" : "Eastern", "STREET" : "2 Hopkins Plaza", "CITY" : "Baltimore", "STATE" : "MD", "ZIP" : "21201", "SINGLE_ADD" : "2 Hopkins Plz, Baltimore, Maryland, 21201", "X" : -76.61642358, "Y" : 39.28938631, "SE_ANNO_CAD_DATA" : "" } }, 
{ "type" : "Feature", "id" : 8, "geometry" : { "type" : "Point", "coordinates" : [ -78.9022433701348, 42.932529800211 ] }, "properties" : { "OBJECTID" : 8, "NAME" : "Buffalo District Office", "CODE" : "CELRB", "HQ_DIVISIO" : "CELRD", "DISTRICT_L" : "CELRB", "TIME_ZONE" : "Eastern", "STREET" : "1776 Niagara Street", "CITY" : "Buffalo", "STATE" : "NY", "ZIP" : "14207", "SINGLE_ADD" : "1776 Niagara St, Buffalo, New York, 14207", "X" : -78.90224337, "Y" : 42.9325298, "SE_ANNO_CAD_DATA" : "" } }, 
{ "type" : "Feature", "id" : 9, "geometry" : { "type" : "Point", "coordinates" : [ -79.9569849203172, 32.7931628503861 ] }, "properties" : { "OBJECTID" : 9, "NAME" : "Charleston District Office", "CODE" : "CESAC", "HQ_DIVISIO" : "CESAD", "DISTRICT_L" : "CESAC", "TIME_ZONE" : "Eastern", "STREET" : "69A Hagood Ave", "CITY" : "Charleston", "STATE" : "SC", "ZIP" : "29403", "SINGLE_ADD" : "69A Hagood Ave, Charleston, South Carolina, 29403", "X" : -79.95698492, "Y" : 32.79316285, "SE_ANNO_CAD_DATA" : "" } }, 
{ "type" : "Feature", "id" : 10, "geometry" : { "type" : "Point", "coordinates" : [ -87.6317311801492, 41.8781469302376 ] }, "properties" : { "OBJECTID" : 10, "NAME" : "Chicago District Office", "CODE" : "CELRC", "HQ_DIVISIO" : "CELRD", "DISTRICT_L" : "CELRC", "TIME_ZONE" : "Central", "STREET" : "231 S. LaSalle", "CITY" : "Chicago", "STATE" : "IL", "ZIP" : "60604", "SINGLE_ADD" : "231 S La Salle St, Chicago, Illinois, 60604", "X" : -87.63173118, "Y" : 41.87814693, "SE_ANNO_CAD_DATA" : "" } }, 
{ "type" : "Feature", "id" : 11, "geometry" : { "type" : "Point", "coordinates" : [ -83.0532059997564, 42.3311579998427 ] }, "properties" : { "OBJECTID" : 11, "NAME" : "Detroit District Office", "CODE" : "CELRE", "HQ_DIVISIO" : "CELRD", "DISTRICT_L" : "CELRE", "TIME_ZONE" : "Eastern", "STREET" : "477 Michigan Ave", "CITY" : "Detroit", "STATE" : "MI", "ZIP" : "48226", "SINGLE_ADD" : "477 Michigan Ave, Detroit, Michigan, 48226", "X" : -83.053206, "Y" : 42.331158, "SE_ANNO_CAD_DATA" : "" } }, 
{ "type" : "Feature", "id" : 12, "geometry" : { "type" : "Point", "coordinates" : [ -77.1429847200681, 38.7484621098394 ] }, "properties" : { "OBJECTID" : 12, "NAME" : "ERDC-Alexandria (CUDE Bldg. 2592)", "CODE" : "ERDC-VA", "HQ_DIVISIO" : "Labs & Centers", "DISTRICT_L" : "ERDC-VA", "TIME_ZONE" : "Eastern", "STREET" : "7701 Telegraph Road", "CITY" : "Alexandria", "STATE" : "VA", "ZIP" : "22315", "SINGLE_ADD" : "7701 Telegraph Rd, Alexandria, Virginia, 22315", "X" : -77.14298472, "Y" : 38.74846211, "SE_ANNO_CAD_DATA" : "" } }, 
{ "type" : "Feature", "id" : 13, "geometry" : { "type" : "Point", "coordinates" : [ -88.2729848402775, 40.1499425997721 ] }, "properties" : { "OBJECTID" : 13, "NAME" : "ERDC-Champaign (2902 Newmark Drive)", "CODE" : "ERDC-IL", "HQ_DIVISIO" : "Labs & Centers", "DISTRICT_L" : "ERDC-IL", "TIME_ZONE" : "Central", "STREET" : "2902 Newmark Drive", "CITY" : "Champaign", "STATE" : "IL", "ZIP" : "61822-1076", "SINGLE_ADD" : "2902 Newmark Dr, Champaign, Illinois, 61822", "X" : -88.27298484, "Y" : 40.1499426, "SE_ANNO_CAD_DATA" : "" } }, 
{ "type" : "Feature", "id" : 14, "geometry" : { "type" : "Point", "coordinates" : [ -72.2691295101181, 43.7268210299675 ] }, "properties" : { "OBJECTID" : 14, "NAME" : "ERDC-Hanover", "CODE" : "ERDC-NH", "HQ_DIVISIO" : "Labs & Centers", "DISTRICT_L" : "ERDC-NH", "TIME_ZONE" : "Eastern", "STREET" : "72 Lyme Road", "CITY" : "Hanover", "STATE" : "NH", "ZIP" : "3755", "SINGLE_ADD" : "72 Lyme Rd, Hanover, New Hampshire, 03755", "X" : -72.26912951, "Y" : 43.72682103, "SE_ANNO_CAD_DATA" : "" } }, 
{ "type" : "Feature", "id" : 15, "geometry" : { "type" : "Point", "coordinates" : [ -90.8733418902154, 32.3019124796781 ] }, "properties" : { "OBJECTID" : 15, "NAME" : "ERDC-Vicksburg (3909 Halls Ferry Road)", "CODE" : "ERDC-MS", "HQ_DIVISIO" : "Labs & Centers", "DISTRICT_L" : "ERDC-MS", "TIME_ZONE" : "Central", "STREET" : "3909 Halls Ferry Road", "CITY" : "Vicksburg", "STATE" : "MS", "ZIP" : "39180", "SINGLE_ADD" : "3909 Halls Ferry Rd, Vicksburg, Mississippi, 39180", "X" : -90.87334189, "Y" : 32.30191248, "SE_ANNO_CAD_DATA" : "" } }, 
{ "type" : "Feature", "id" : 16, "geometry" : { "type" : "Point", "coordinates" : [ 127.025110999574, 36.9487740001209 ] }, "properties" : { "OBJECTID" : 16, "NAME" : "Far East District", "CODE" : "CEPOF", "HQ_DIVISIO" : "CEPOD", "DISTRICT_L" : "CEPOF", "TIME_ZONE" : "Korea", "STREET" : "USAEDFE", "CITY" : "Unit 15546", "STATE" : "APO", "ZIP" : "APO-AP 96205", "SINGLE_ADD" : "Camp Humphreys, Korea", "X" : 127.025111, "Y" : 36.948774, "SE_ANNO_CAD_DATA" : "" } }, 
{ "type" : "Feature", "id" : 17, "geometry" : { "type" : "Point", "coordinates" : [ -97.3315209999935, 32.7505050002065 ] }, "properties" : { "OBJECTID" : 17, "NAME" : "Fort Worth District Office", "CODE" : "CESWF", "HQ_DIVISIO" : "CESWD", "DISTRICT_L" : "CESWF", "TIME_ZONE" : "Central", "STREET" : "819 Taylor Street", "CITY" : "Fort Worth", "STATE" : "TX", "ZIP" : "76102", "SINGLE_ADD" : "819 Taylor St, Fort Worth, Texas, 76102", "X" : -97.3315215, "Y" : 32.750505, "SE_ANNO_CAD_DATA" : "" } }, 
{ "type" : "Feature", "id" : 18, "geometry" : { "type" : "Point", "coordinates" : [ -94.7696445599478, 29.3217768000601 ] }, "properties" : { "OBJECTID" : 18, "NAME" : "Galveston District Office", "CODE" : "CESWG", "HQ_DIVISIO" : "CESWD", "DISTRICT_L" : "CESWG", "TIME_ZONE" : "Central", "STREET" : "2000 Fort Point Road", "CITY" : "Galveston", "STATE" : "TX", "ZIP" : "77550", "SINGLE_ADD" : "2000 Fort Point Rd, Galveston, Texas, 77550", "X" : -94.76964456, "Y" : 29.3217768, "SE_ANNO_CAD_DATA" : "" } }, 
{ "type" : "Feature", "id" : 19, "geometry" : { "type" : "Point", "coordinates" : [ -84.5096985003848, 39.1023360000073 ] }, "properties" : { "OBJECTID" : 19, "NAME" : "Great Lakes and Ohio River Division Office", "CODE" : "CELRD", "HQ_DIVISIO" : "CELRD", "DISTRICT_L" : "CELRD", "TIME_ZONE" : "Eastern", "STREET" : "550 Main Street", "CITY" : "Cincinnati", "STATE" : "OH", "ZIP" : "45202", "SINGLE_ADD" : "550 Main St, Cincinnati, Ohio, 45202", "X" : -84.5096985, "Y" : 39.102336, "SE_ANNO_CAD_DATA" : "" } }, 
{ "type" : "Feature", "id" : 20, "geometry" : { "type" : "Point", "coordinates" : [ -77.1429847200681, 38.7484621098394 ] }, "properties" : { "OBJECTID" : 20, "NAME" : "HECSA", "CODE" : "CEHEC", "HQ_DIVISIO" : "HQUSACE", "DISTRICT_L" : "CEHEC", "TIME_ZONE" : "Eastern", "STREET" : "7701 Telegraph Road", "CITY" : "Alexandria", "STATE" : "VA", "ZIP" : "22315", "SINGLE_ADD" : "7701 Telegraph Rd, Alexandria, Virginia, 22315", "X" : -77.14298472, "Y" : 38.74846211, "SE_ANNO_CAD_DATA" : "" } }, 
{ "type" : "Feature", "id" : 21, "geometry" : { "type" : "Point", "coordinates" : [ -157.888031899552, 21.3377450002324 ] }, "properties" : { "OBJECTID" : 21, "NAME" : "Honolulu District Office", "CODE" : "CEPOH", "HQ_DIVISIO" : "CEPOD", "DISTRICT_L" : "CEPOH", "TIME_ZONE" : "Hawaii", "STREET" : "230 Otake St", "CITY" : "Ft. Shafter", "STATE" : "HI", "ZIP" : "96858", "SINGLE_ADD" : "Fort Shafter, Hawaii, 96858", "X" : -157.8880319, "Y" : 21.337745, "SE_ANNO_CAD_DATA" : "" } }, 
{ "type" : "Feature", "id" : 22, "geometry" : { "type" : "Point", "coordinates" : [ -82.4450249600332, 38.4187181804006 ] }, "properties" : { "OBJECTID" : 22, "NAME" : "Huntington District Office", "CODE" : "CELRH", "HQ_DIVISIO" : "CELRD", "DISTRICT_L" : "CELRH", "TIME_ZONE" : "Eastern", "STREET" : "502 8th Street", "CITY" : "Huntington", "STATE" : "WV", "ZIP" : "25701", "SINGLE_ADD" : "502 8th St, Huntington, West Virginia, 25701", "X" : -82.44502496, "Y" : 38.41871818, "SE_ANNO_CAD_DATA" : "" } }, 
{ "type" : "Feature", "id" : 23, "geometry" : { "type" : "Point", "coordinates" : [ -77.1429847200681, 38.7484621098394 ] }, "properties" : { "OBJECTID" : 23, "NAME" : "Institute for Water Resources", "CODE" : "CEIWR", "HQ_DIVISIO" : "HQUSACE", "DISTRICT_L" : "CEIWR", "TIME_ZONE" : "Eastern", "STREET" : "7701 Telegraph Road", "CITY" : "Alexandria", "STATE" : "VA", "ZIP" : "22315", "SINGLE_ADD" : "7701 Telegraph Rd, Alexandria, Virginia, 22315", "X" : -77.14298472, "Y" : 38.74846211, "SE_ANNO_CAD_DATA" : "" } }, 
{ "type" : "Feature", "id" : 24, "geometry" : { "type" : "Point", "coordinates" : [ -81.6604077303318, 30.3182110796785 ] }, "properties" : { "OBJECTID" : 24, "NAME" : "Jacksonville District Office", "CODE" : "CESAJ", "HQ_DIVISIO" : "CESAD", "DISTRICT_L" : "CESAJ", "TIME_ZONE" : "Eastern", "STREET" : "701 San Marco Blvd", "CITY" : "Jacksonville", "STATE" : "FL", "ZIP" : "32207", "SINGLE_ADD" : "701 San Marco Blvd, Jacksonville, Florida, 32207", "X" : -81.66040773, "Y" : 30.31821108, "SE_ANNO_CAD_DATA" : "" } }, 
{ "type" : "Feature", "id" : 25, "geometry" : { "type" : "Point", "coordinates" : [ 139.397176208217, 35.4919162281523 ] }, "properties" : { "OBJECTID" : 25, "NAME" : "Japan Engineer District", "CODE" : "CEPOJ", "HQ_DIVISIO" : "CEPOD", "DISTRICT_L" : "CEPOJ", "TIME_ZONE" : "Japan", "STREET" : "Camp Zama", "CITY" : "Zama-City", "STATE" : "Kanagawa", "ZIP" : "252-8511 JAPAN", "SINGLE_ADD" : "Japan, Missouri", "X" : 139.397176, "Y" : 35.4919167, "SE_ANNO_CAD_DATA" : "" } }, 
{ "type" : "Feature", "id" : 26, "geometry" : { "type" : "Point", "coordinates" : [ -94.57619850016, 39.0989700003661 ] }, "properties" : { "OBJECTID" : 26, "NAME" : "Kansas City District Office", "CODE" : "CENWK", "HQ_DIVISIO" : "CENWD", "DISTRICT_L" : "CENWK", "TIME_ZONE" : "Central", "STREET" : "601 E. 12th St", "CITY" : "Kansas City", "STATE" : "MO", "ZIP" : "64106", "SINGLE_ADD" : "601 E 12th St, Kansas City, Missouri, 64106", "X" : -94.5761985, "Y" : 39.09897, "SE_ANNO_CAD_DATA" : "" } }, 
{ "type" : "Feature", "id" : 27, "geometry" : { "type" : "Point", "coordinates" : [ -92.2787910002039, 34.7456160000792 ] }, "properties" : { "OBJECTID" : 27, "NAME" : "Little Rock District Office", "CODE" : "CESWL", "HQ_DIVISIO" : "CESWD", "DISTRICT_L" : "CESWL", "TIME_ZONE" : "Central", "STREET" : "700 West Capitol", "CITY" : "Little Rock", "STATE" : "AR", "ZIP" : "72201", "SINGLE_ADD" : "700 W Capitol Ave, Little Rock, Arkansas, 72201", "X" : -92.278791, "Y" : 34.745616, "SE_ANNO_CAD_DATA" : "" } }, 
{ "type" : "Feature", "id" : 28, "geometry" : { "type" : "Point", "coordinates" : [ -118.260253300249, 34.0507394499666 ] }, "properties" : { "OBJECTID" : 28, "NAME" : "Los Angeles District Office", "CODE" : "CESPL", "HQ_DIVISIO" : "CESPD", "DISTRICT_L" : "CESPL", "TIME_ZONE" : "Pacific", "STREET" : "915 Wilshire Blvd", "CITY" : "Los Angeles", "STATE" : "CA", "ZIP" : "90017", "SINGLE_ADD" : "915 Wilshire Blvd, Los Angeles, California, 90017", "X" : -118.2602533, "Y" : 34.05073945, "SE_ANNO_CAD_DATA" : "" } }, 
{ "type" : "Feature", "id" : 29, "geometry" : { "type" : "Point", "coordinates" : [ -85.7621554196363, 38.2489064595663 ] }, "properties" : { "OBJECTID" : 29, "NAME" : "Louisville District Office", "CODE" : "CELRL", "HQ_DIVISIO" : "CELRD", "DISTRICT_L" : "CELRL", "TIME_ZONE" : "Eastern", "STREET" : "600 DR. MARTIN L. KING JR. PLACE", "CITY" : "LOUISVILLE", "STATE" : "KY", "ZIP" : "40202", "SINGLE_ADD" : "600 Dr Martin Luther King Pl, Louisville, Kentucky, 40202", "X" : -85.76215542, "Y" : 38.24890646, "SE_ANNO_CAD_DATA" : "" } }, 
{ "type" : "Feature", "id" : 30, "geometry" : { "type" : "Point", "coordinates" : [ -90.0517589999772, 35.1496439997717 ] }, "properties" : { "OBJECTID" : 30, "NAME" : "Memphis District Office", "CODE" : "CEMVM", "HQ_DIVISIO" : "CEMVD", "DISTRICT_L" : "CEMVM", "TIME_ZONE" : "Central", "STREET" : "167 N. Main Street", "CITY" : "Memphis", "STATE" : "TN", "ZIP" : "38103", "SINGLE_ADD" : "167 N Main St, Memphis, Tennessee, 38103", "X" : -90.051759, "Y" : 35.149644, "SE_ANNO_CAD_DATA" : "" } }, 
{ "type" : "Feature", "id" : 31, "geometry" : { "type" : "Point", "coordinates" : [ -78.1483212501249, 39.1543851699406 ] }, "properties" : { "OBJECTID" : 31, "NAME" : "Middle East District", "CODE" : "CETAM", "HQ_DIVISIO" : "CETAD", "DISTRICT_L" : "CETAM", "TIME_ZONE" : "Eastern", "STREET" : "201 Prince Frederick Drive", "CITY" : "Winchester", "STATE" : "VA", "ZIP" : "22604-1450", "SINGLE_ADD" : "201 Prince Frederick Dr, Winchester, Virginia, 22602", "X" : -78.14832125, "Y" : 39.15438517, "SE_ANNO_CAD_DATA" : "" } }, 
{ "type" : "Feature", "id" : 32, "geometry" : { "type" : "Point", "coordinates" : [ -90.8811934896872, 32.3489501001679 ] }, "properties" : { "OBJECTID" : 32, "NAME" : "Mississippi Valley Division Office", "CODE" : "CEMVD", "HQ_DIVISIO" : "CEMVD", "DISTRICT_L" : "CEMVD", "TIME_ZONE" : "Central", "STREET" : "1400 Walnut Street", "CITY" : "Vicksburg", "STATE" : "MS", "ZIP" : "39180", "SINGLE_ADD" : "1400 Walnut St, Vicksburg, Mississippi, 39180", "X" : -90.88119349, "Y" : 32.3489501, "SE_ANNO_CAD_DATA" : "" } }, 
{ "type" : "Feature", "id" : 33, "geometry" : { "type" : "Point", "coordinates" : [ -88.0426047500086, 30.6936399898945 ] }, "properties" : { "OBJECTID" : 33, "NAME" : "Mobile District Office", "CODE" : "CESAM", "HQ_DIVISIO" : "CESAD", "DISTRICT_L" : "CESAM", "TIME_ZONE" : "Central", "STREET" : "109 St. Joseph Street", "CITY" : "Mobile", "STATE" : "AL", "ZIP" : "36602", "SINGLE_ADD" : "109 St Joseph St, Mobile, Alabama, 36602", "X" : -88.04260475, "Y" : 30.69363999, "SE_ANNO_CAD_DATA" : "" } }, 
{ "type" : "Feature", "id" : 34, "geometry" : { "type" : "Point", "coordinates" : [ -86.7829462801461, 36.1577728195609 ] }, "properties" : { "OBJECTID" : 34, "NAME" : "Nashville District Office", "CODE" : "CELRN", "HQ_DIVISIO" : "CELRD", "DISTRICT_L" : "CELRN", "TIME_ZONE" : "Central", "STREET" : "110th 9th Avenue South", "CITY" : "Nashville", "STATE" : "TN", "ZIP" : "37203", "SINGLE_ADD" : "110 9th Ave S, Nashville, Tennessee, 37203", "X" : -86.78294628, "Y" : 36.15777282, "SE_ANNO_CAD_DATA" : "" } }, 
{ "type" : "Feature", "id" : 35, "geometry" : { "type" : "Point", "coordinates" : [ -71.3000289198981, 42.4648000500832 ] }, "properties" : { "OBJECTID" : 35, "NAME" : "New England District Office", "CODE" : "CENAE", "HQ_DIVISIO" : "CENAD", "DISTRICT_L" : "CENAE", "TIME_ZONE" : "Eastern", "STREET" : "696 Virginia Road", "CITY" : "Concord", "STATE" : "MA", "ZIP" : "1742", "SINGLE_ADD" : "696 Virginia Rd, Concord, Massachusetts, 01742", "X" : -71.30002892, "Y" : 42.46480005, "SE_ANNO_CAD_DATA" : "" } }, 
{ "type" : "Feature", "id" : 36, "geometry" : { "type" : "Point", "coordinates" : [ -90.1336580104082, 29.9322539996232 ] }, "properties" : { "OBJECTID" : 36, "NAME" : "New Orleans District Office", "CODE" : "CEMVN", "HQ_DIVISIO" : "CEMVD", "DISTRICT_L" : "CEMVN", "TIME_ZONE" : "Central", "STREET" : "7400 Leake Avenue", "CITY" : "New Orleans", "STATE" : "LA", "ZIP" : "70118", "SINGLE_ADD" : "7400 Leake Ave, New Orleans, Louisiana, 70118", "X" : -90.13365801, "Y" : 29.932254, "SE_ANNO_CAD_DATA" : "" } }, 
{ "type" : "Feature", "id" : 37, "geometry" : { "type" : "Point", "coordinates" : [ -74.0042414999446, 40.7154689998953 ] }, "properties" : { "OBJECTID" : 37, "NAME" : "New York District Office", "CODE" : "CENAN", "HQ_DIVISIO" : "CENAD", "DISTRICT_L" : "CENAN", "TIME_ZONE" : "Eastern", "STREET" : "26 Federal Plaza", "CITY" : "New York", "STATE" : "NY", "ZIP" : "10278", "SINGLE_ADD" : "26 Federal Plz, New York, 10278", "X" : -74.0042415, "Y" : 40.715469, "SE_ANNO_CAD_DATA" : "" } }, 
{ "type" : "Feature", "id" : 38, "geometry" : { "type" : "Point", "coordinates" : [ -76.3055944399308, 36.8562915897859 ] }, "properties" : { "OBJECTID" : 38, "NAME" : "Norfolk District Office", "CODE" : "CENAO", "HQ_DIVISIO" : "CENAD", "DISTRICT_L" : "CENAO", "TIME_ZONE" : "Eastern", "STREET" : "803 FRONT STREET", "CITY" : "NORFOLK", "STATE" : "VA", "ZIP" : "23510", "SINGLE_ADD" : "803 Front St, Norfolk, Virginia, 23510", "X" : -76.30559444, "Y" : 36.85629159, "SE_ANNO_CAD_DATA" : "" } }, 
{ "type" : "Feature", "id" : 39, "geometry" : { "type" : "Point", "coordinates" : [ -74.0266151296838, 40.6080044499463 ] }, "properties" : { "OBJECTID" : 39, "NAME" : "North Atlantic Division Office", "CODE" : "CENAD", "HQ_DIVISIO" : "CENAD", "DISTRICT_L" : "CENAD", "TIME_ZONE" : "Eastern", "STREET" : "302 General Lee Avenue", "CITY" : "Brooklyn", "STATE" : "NY", "ZIP" : "11252", "SINGLE_ADD" : "302 General Lee Ave, Brooklyn, New York, 11252", "X" : -74.02661513, "Y" : 40.60800445, "SE_ANNO_CAD_DATA" : "" } }, 
{ "type" : "Feature", "id" : 40, "geometry" : { "type" : "Point", "coordinates" : [ -95.9381660816987, 41.2609802108689 ] }, "properties" : { "OBJECTID" : 40, "NAME" : "Northwestern Division Office", "CODE" : "CENWD", "HQ_DIVISIO" : "CENWD", "DISTRICT_L" : "CENWD", "TIME_ZONE" : "Pacific", "STREET" : "1616 Capitol Ave.", "CITY" : "Omaha", "STATE" : "NE", "ZIP" : "68102", "SINGLE_ADD" : "1616 Capitol Ave., \r\nOmaha, NE, 68102\r\n", "X" : -95.938126, "Y" : 41.261066, "SE_ANNO_CAD_DATA" : "" } }, 
{ "type" : "Feature", "id" : 41, "geometry" : { "type" : "Point", "coordinates" : [ -95.9381054116348, 41.2609807153886 ] }, "properties" : { "OBJECTID" : 41, "NAME" : "Omaha District Headquarters, Omaha, NE", "CODE" : "CENWO", "HQ_DIVISIO" : "CENWD", "DISTRICT_L" : "CENWO", "TIME_ZONE" : "Central", "STREET" : "1616 Capitol Ave", "CITY" : "Omaha", "STATE" : "NE", "ZIP" : "68102-4901", "SINGLE_ADD" : "1616 Capitol Ave, Omaha, Nebraska, 68102", "X" : -95.93817781, "Y" : 41.261066, "SE_ANNO_CAD_DATA" : "" } }, 
{ "type" : "Feature", "id" : 42, "geometry" : { "type" : "Point", "coordinates" : [ -157.888031899552, 21.3377450002324 ] }, "properties" : { "OBJECTID" : 42, "NAME" : "Pacific Ocean Division Office", "CODE" : "CEPOD", "HQ_DIVISIO" : "CEPOD", "DISTRICT_L" : "CEPOD", "TIME_ZONE" : "Hawaii", "STREET" : "Ft. Shafter", "CITY" : " ", "STATE" : "HI", "ZIP" : "96858", "SINGLE_ADD" : "Fort Shafter, Hawaii, 96858", "X" : -157.8880319, "Y" : 21.337745, "SE_ANNO_CAD_DATA" : "" } }, 
{ "type" : "Feature", "id" : 43, "geometry" : { "type" : "Point", "coordinates" : [ -75.162694179692, 39.9520607203269 ] }, "properties" : { "OBJECTID" : 43, "NAME" : "Philadelphia District Headquarters", "CODE" : "CENAP", "HQ_DIVISIO" : "CENAD", "DISTRICT_L" : "CENAP", "TIME_ZONE" : "Eastern", "STREET" : "100 Penn Square East", "CITY" : "Philadelphia", "STATE" : "PA", "ZIP" : "19107-3390", "SINGLE_ADD" : "100 Penn Sq E, Philadelphia, Pennsylvania, 19107", "X" : -75.16269418, "Y" : 39.95206072, "SE_ANNO_CAD_DATA" : "" } }, 
{ "type" : "Feature", "id" : 44, "geometry" : { "type" : "Point", "coordinates" : [ -79.9946324998893, 40.4434260001107 ] }, "properties" : { "OBJECTID" : 44, "NAME" : "Pittsburgh District Office", "CODE" : "CELRP", "HQ_DIVISIO" : "CELRD", "DISTRICT_L" : "CELRP", "TIME_ZONE" : "Eastern", "STREET" : "1000 Liberty Ave", "CITY" : "Pittsburgh", "STATE" : "PA", "ZIP" : "15222", "SINGLE_ADD" : "1000 Liberty Ave, Pittsburgh, Pennsylvania, 15222", "X" : -79.9946325, "Y" : 40.443426, "SE_ANNO_CAD_DATA" : "" } }, 
{ "type" : "Feature", "id" : 45, "geometry" : { "type" : "Point", "coordinates" : [ -122.672794500165, 45.5201910003153 ] }, "properties" : { "OBJECTID" : 45, "NAME" : "Portland District Office", "CODE" : "CENWP", "HQ_DIVISIO" : "CENWD", "DISTRICT_L" : "CENWP", "TIME_ZONE" : "Pacific", "STREET" : "333 SW First Ave", "CITY" : "Portland", "STATE" : "OR", "ZIP" : "97204", "SINGLE_ADD" : "333 SW 1st Ave, Portland, Oregon, 97204", "X" : -122.6727945, "Y" : 45.520191, "SE_ANNO_CAD_DATA" : "" } }, 
{ "type" : "Feature", "id" : 46, "geometry" : { "type" : "Point", "coordinates" : [ -90.5633143195996, 41.516021969839 ] }, "properties" : { "OBJECTID" : 46, "NAME" : "Rock Island District Office", "CODE" : "CEMVR", "HQ_DIVISIO" : "CEMVD", "DISTRICT_L" : "CEMVR", "TIME_ZONE" : "Central", "STREET" : "1500 Rock Island Dr", "CITY" : "Rock Island", "STATE" : "IL", "ZIP" : "61204", "SINGLE_ADD" : "1500 Rock Island Dr, Rock Island, Illinois, 61201", "X" : -90.56331432, "Y" : 41.51602197, "SE_ANNO_CAD_DATA" : "" } }, 
{ "type" : "Feature", "id" : 47, "geometry" : { "type" : "Point", "coordinates" : [ -121.488295499737, 38.5792830000113 ] }, "properties" : { "OBJECTID" : 47, "NAME" : "Sacramento District Office", "CODE" : "CESPK", "HQ_DIVISIO" : "CESPD", "DISTRICT_L" : "CESPK", "TIME_ZONE" : "Pacific", "STREET" : "1325 J Street", "CITY" : "Sacramento", "STATE" : "CA", "ZIP" : "95814", "SINGLE_ADD" : "1325 J St, Sacramento, California, 95814", "X" : -121.4882955, "Y" : 38.579283, "SE_ANNO_CAD_DATA" : "" } }, 
{ "type" : "Feature", "id" : 48, "geometry" : { "type" : "Point", "coordinates" : [ -122.418103500176, 37.7819549998243 ] }, "properties" : { "OBJECTID" : 48, "NAME" : "San Francisco District Office", "CODE" : "CESPN", "HQ_DIVISIO" : "CESPD", "DISTRICT_L" : "CESPN", "TIME_ZONE" : "Pacific", "STREET" : "450 GOLDEN GATE AVENUE", "CITY" : "San Francisco", "STATE" : "CA", "ZIP" : "94102-3406", "SINGLE_ADD" : "450 Golden Gate Ave, San Francisco, California, 94102", "X" : -122.4181035, "Y" : 37.781955, "SE_ANNO_CAD_DATA" : "" } }, 
{ "type" : "Feature", "id" : 49, "geometry" : { "type" : "Point", "coordinates" : [ -81.0942074996757, 32.0777639996098 ] }, "properties" : { "OBJECTID" : 49, "NAME" : "Savannah District Office", "CODE" : "CESAS", "HQ_DIVISIO" : "CESAD", "DISTRICT_L" : "CESAS", "TIME_ZONE" : "Eastern", "STREET" : "100 W. Oglethorpe Ave.", "CITY" : "Savannah", "STATE" : "GA", "ZIP" : "31404", "SINGLE_ADD" : "100 W Oglethorpe Ave, Savannah, Georgia, 31401", "X" : -81.0942075, "Y" : 32.077764, "SE_ANNO_CAD_DATA" : "" } }, 
{ "type" : "Feature", "id" : 50, "geometry" : { "type" : "Point", "coordinates" : [ -122.342597350187, 47.5598143747345 ] }, "properties" : { "OBJECTID" : 50, "NAME" : "Seattle District Office", "CODE" : "CENWS", "HQ_DIVISIO" : "CENWD", "DISTRICT_L" : "CENWS", "TIME_ZONE" : "Pacific", "STREET" : "4735 E. Marginal Way S.", "CITY" : "Seattle", "STATE" : "WA", "ZIP" : "98134", "SINGLE_ADD" : "4735 E Marginal Way S, Seattle, Washington, 98134", "X" : -122.3424993, "Y" : 47.5596135, "SE_ANNO_CAD_DATA" : "" } }, 
{ "type" : "Feature", "id" : 51, "geometry" : { "type" : "Point", "coordinates" : [ -84.3935171204182, 33.7526047398178 ] }, "properties" : { "OBJECTID" : 51, "NAME" : "South Atlantic Division Office", "CODE" : "CESAD", "HQ_DIVISIO" : "CESAD", "DISTRICT_L" : "CESAD", "TIME_ZONE" : "Eastern", "STREET" : "60 Forsyth Street SW", "CITY" : "Atlanta", "STATE" : "GA", "ZIP" : "30303", "SINGLE_ADD" : "60 Forsyth St SW, Atlanta, Georgia, 30303", "X" : -84.39351712, "Y" : 33.75260474, "SE_ANNO_CAD_DATA" : "" } }, 
{ "type" : "Feature", "id" : 52, "geometry" : { "type" : "Point", "coordinates" : [ -122.418103500176, 37.7819549998243 ] }, "properties" : { "OBJECTID" : 52, "NAME" : "South Pacific Division", "CODE" : "CESPD", "HQ_DIVISIO" : "CESPD", "DISTRICT_L" : "CESPD", "TIME_ZONE" : "Pacific", "STREET" : "450 Golden Gate Avenue", "CITY" : "San Francisco", "STATE" : "CA", "ZIP" : "94102", "SINGLE_ADD" : "450 Golden Gate Ave, San Francisco, California, 94102", "X" : -122.4181035, "Y" : 37.781955, "SE_ANNO_CAD_DATA" : "" } }, 
{ "type" : "Feature", "id" : 53, "geometry" : { "type" : "Point", "coordinates" : [ -96.8015655000472, 32.778963000443 ] }, "properties" : { "OBJECTID" : 53, "NAME" : "Southwestern Division Office", "CODE" : "CESWD", "HQ_DIVISIO" : "CESWD", "DISTRICT_L" : "CESWD", "TIME_ZONE" : "Central", "STREET" : "1100 Commerce St.", "CITY" : "Dallas", "STATE" : "TX", "ZIP" : "75242", "SINGLE_ADD" : "1100 Commerce St, Dallas, Texas, 75242", "X" : -96.8015655, "Y" : 32.778963, "SE_ANNO_CAD_DATA" : "" } }, 
{ "type" : "Feature", "id" : 54, "geometry" : { "type" : "Point", "coordinates" : [ -90.2004615000975, 38.6239589999088 ] }, "properties" : { "OBJECTID" : 54, "NAME" : "St. Louis District Office", "CODE" : "CEMVS", "HQ_DIVISIO" : "CEMVD", "DISTRICT_L" : "CEMVS", "TIME_ZONE" : "Central", "STREET" : "1222 Spruce St.", "CITY" : "St. Louis", "STATE" : "MO", "ZIP" : "63103", "SINGLE_ADD" : "1222 Spruce St, Saint Louis, Missouri, 63103", "X" : -90.2004615, "Y" : 38.623959, "SE_ANNO_CAD_DATA" : "" } }, 
{ "type" : "Feature", "id" : 55, "geometry" : { "type" : "Point", "coordinates" : [ -93.0886320297437, 44.9484649096288 ] }, "properties" : { "OBJECTID" : 55, "NAME" : "St. Paul District Office", "CODE" : "CEMVP", "HQ_DIVISIO" : "CEMVD", "DISTRICT_L" : "CEMVP", "TIME_ZONE" : "Central", "STREET" : "180 East Fifth Street", "CITY" : "St. Paul", "STATE" : "MN", "ZIP" : "55101", "SINGLE_ADD" : "180 5th St E, Saint Paul, Minnesota, 55101", "X" : -93.08863203, "Y" : 44.94846491, "SE_ANNO_CAD_DATA" : "" } }, 
{ "type" : "Feature", "id" : 56, "geometry" : { "type" : "Point", "coordinates" : [ -78.1483212501249, 39.1543851699406 ] }, "properties" : { "OBJECTID" : 56, "NAME" : "Transatlantic Division", "CODE" : "CETAD", "HQ_DIVISIO" : "CETAD", "DISTRICT_L" : "CETAD", "TIME_ZONE" : "Eastern", "STREET" : "201 Prince Frederick Drive", "CITY" : "Winchester", "STATE" : "VA", "ZIP" : "22604-1450", "SINGLE_ADD" : "201 Prince Frederick Dr, Winchester, Virginia, 22602", "X" : -78.14832125, "Y" : 39.15438517, "SE_ANNO_CAD_DATA" : "" } }, 
{ "type" : "Feature", "id" : 57, "geometry" : { "type" : "Point", "coordinates" : [ -95.8631624998488, 36.138725999706 ] }, "properties" : { "OBJECTID" : 57, "NAME" : "Tulsa District Office", "CODE" : "CESWT", "HQ_DIVISIO" : "CESWD", "DISTRICT_L" : "CESWT", "TIME_ZONE" : "Central", "STREET" : "1645 South 101st E. Ave.", "CITY" : "Tulsa", "STATE" : "OK", "ZIP" : "74128", "SINGLE_ADD" : "1645 S 101st East Ave, Tulsa, Oklahoma, 74128", "X" : -95.8631625, "Y" : 36.138726, "SE_ANNO_CAD_DATA" : "" } }, 
{ "type" : "Feature", "id" : 58, "geometry" : { "type" : "Point", "coordinates" : [ -86.6551354601327, 34.7412356595989 ] }, "properties" : { "OBJECTID" : 58, "NAME" : "U.S. Army Engineering and Support Center, Huntsville", "CODE" : "CEHNC", "HQ_DIVISIO" : "Labs & Centers", "DISTRICT_L" : "CEHNC", "TIME_ZONE" : "Central", "STREET" : "4820 University Sq.", "CITY" : "Huntsville", "STATE" : "AL", "ZIP" : "35816", "SINGLE_ADD" : "4820 University Sq, Huntsville, Alabama, 35816", "X" : -86.65513546, "Y" : 34.74123566, "SE_ANNO_CAD_DATA" : "" } }, 
{ "type" : "Feature", "id" : 59, "geometry" : { "type" : "Point", "coordinates" : [ 8.26806325541577, 50.0760446253601 ] }, "properties" : { "OBJECTID" : 59, "NAME" : "USACE Europe District", "CODE" : "CENAU", "HQ_DIVISIO" : "CENAD", "DISTRICT_L" : "CENAU", "TIME_ZONE" : "Other", "STREET" : "Konrad-Adenauer Ring 39", "CITY" : "Wiesbaden", "STATE" : "Germany", "ZIP" : "APO-AE 65187", "SINGLE_ADD" : "Wiesbaden, Germany", "X" : 8.2681053, "Y" : 50.076029, "SE_ANNO_CAD_DATA" : "" } }, 
{ "type" : "Feature", "id" : 60, "geometry" : { "type" : "Point", "coordinates" : [ -89.8726740898367, 35.328197620125 ] }, "properties" : { "OBJECTID" : 60, "NAME" : "USACE Finance Center", "CODE" : "CEFC", "HQ_DIVISIO" : "Labs & Centers", "DISTRICT_L" : "CEFC", "TIME_ZONE" : "Central", "STREET" : "Physical Address: 5700 Wasp Ave Mailing Address: 5722 Integrity Drive", "CITY" : "Millington", "STATE" : "TN", "ZIP" : "38054", "SINGLE_ADD" : "5722 Integrity Dr, Millington, Tennessee, 38054", "X" : -89.87267409, "Y" : 35.32819762, "SE_ANNO_CAD_DATA" : "" } }, 
{ "type" : "Feature", "id" : 61, "geometry" : { "type" : "Point", "coordinates" : [ -77.017549499709, 38.8990800004426 ] }, "properties" : { "OBJECTID" : 61, "NAME" : "USACE Headquarters", "CODE" : "HQUSACE", "HQ_DIVISIO" : "HQUSACE", "DISTRICT_L" : "HQUSACE", "TIME_ZONE" : "Eastern", "STREET" : "441 G Street NW", "CITY" : "Washington", "STATE" : "DC", "ZIP" : "20314", "SINGLE_ADD" : "441 G St NW, Washington, District of Columbia, 20548", "X" : -77.0175495, "Y" : 38.89908, "SE_ANNO_CAD_DATA" : "" } }, 
{ "type" : "Feature", "id" : 62, "geometry" : { "type" : "Point", "coordinates" : [ -89.8638705004226, 35.339715000148 ] }, "properties" : { "OBJECTID" : 62, "NAME" : "USACE Logistics Activity Center", "CODE" : "CELA", "HQ_DIVISIO" : "Labs & Centers", "DISTRICT_L" : "CELA", "TIME_ZONE" : "Central", "STREET" : "5955 Attu St", "CITY" : "Millington", "STATE" : "TN", "ZIP" : "38054", "SINGLE_ADD" : "5955 Attu St, Millington, Tennessee, 38053", "X" : -89.8638705, "Y" : 35.339715, "SE_ANNO_CAD_DATA" : "" } }, 
{ "type" : "Feature", "id" : 63, "geometry" : { "type" : "Point", "coordinates" : [ -90.8343695903836, 32.3440474604229 ] }, "properties" : { "OBJECTID" : 63, "NAME" : "Vicksburg District Office", "CODE" : "CEMVK", "HQ_DIVISIO" : "CEMVD", "DISTRICT_L" : "CEMVK", "TIME_ZONE" : "Central", "STREET" : "4155 Clay Street", "CITY" : "Vicksburg", "STATE" : "MS", "ZIP" : "39183", "SINGLE_ADD" : "4155 Clay St, Vicksburg, Mississippi, 39183", "X" : -90.83436959, "Y" : 32.34404746, "SE_ANNO_CAD_DATA" : "" } }, 
{ "type" : "Feature", "id" : 64, "geometry" : { "type" : "Point", "coordinates" : [ -118.342365600192, 46.0682280795631 ] }, "properties" : { "OBJECTID" : 64, "NAME" : "Walla Walla District Office", "CODE" : "CENWW", "HQ_DIVISIO" : "CENWD", "DISTRICT_L" : "CENWW", "TIME_ZONE" : "Pacific", "STREET" : "201 North Third Avenue", "CITY" : "Walla Walla", "STATE" : "WA", "ZIP" : "99362", "SINGLE_ADD" : "201 N 3rd Ave, Walla Walla, Washington, 99362", "X" : -118.3423656, "Y" : 46.06822808, "SE_ANNO_CAD_DATA" : "" } }, 
{ "type" : "Feature", "id" : 65, "geometry" : { "type" : "Point", "coordinates" : [ -77.9004629995671, 34.2393390002955 ] }, "properties" : { "OBJECTID" : 65, "NAME" : "Wilmington District Office", "CODE" : "CESAW", "HQ_DIVISIO" : "CESAD", "DISTRICT_L" : "CESAW", "TIME_ZONE" : "Eastern", "STREET" : "69 Darlington Avenue", "CITY" : "Wilmington", "STATE" : "NC", "ZIP" : "28403", "SINGLE_ADD" : "69 Darlington Ave, Wilmington, North Carolina, 28403", "X" : -77.900463, "Y" : 34.239339, "SE_ANNO_CAD_DATA" : "" } } 

] }